[
    {
        "id": 1,
        "project_name": "Greenlam",
        "lat": -7.7595897,
        "lng": 110.8344302,
        "status": true
    },
    {
        "id": 2,
        "project_name": "Aerified",
        "lat": 42.0512556,
        "lng": 20.5554375,
        "status": false
    },
    {
        "id": 3,
        "project_name": "Zoolab",
        "lat": -25.6112339,
        "lng": -54.5515662,
        "status": false
    },
    {
        "id": 4,
        "project_name": "Greenlam",
        "lat": 40.7200264,
        "lng": -7.2571497,
        "status": false
    },
    {
        "id": 5,
        "project_name": "Aerified",
        "lat": 30.830775,
        "lng": 112.98787,
        "status": false
    },
    {
        "id": 6,
        "project_name": "Opela",
        "lat": -38.7088593,
        "lng": -73.1678812,
        "status": true
    },
    {
        "id": 7,
        "project_name": "Voyatouch",
        "lat": 26.6674,
        "lng": 113.449709,
        "status": false
    },
    {
        "id": 8,
        "project_name": "Pannier",
        "lat": 55.7859618,
        "lng": 27.4327467,
        "status": true
    },
    {
        "id": 9,
        "project_name": "Temp",
        "lat": 44.9870496,
        "lng": 38.994454,
        "status": false
    },
    {
        "id": 10,
        "project_name": "Latlux",
        "lat": 30.274084,
        "lng": 120.15507,
        "status": false
    },
    {
        "id": 11,
        "project_name": "Tresom",
        "lat": 27.318852,
        "lng": 115.444319,
        "status": true
    },
    {
        "id": 12,
        "project_name": "Stim",
        "lat": 5.0377396,
        "lng": 7.9127945,
        "status": false
    },
    {
        "id": 13,
        "project_name": "Cookley",
        "lat": 47.0739574,
        "lng": 28.6801952,
        "status": true
    },
    {
        "id": 14,
        "project_name": "Matsoft",
        "lat": 33.9596334,
        "lng": -118.3286614,
        "status": true
    },
    {
        "id": 15,
        "project_name": "Aerified",
        "lat": 40.9860764,
        "lng": -8.530048,
        "status": true
    },
    {
        "id": 16,
        "project_name": "Andalax",
        "lat": 9.2214675,
        "lng": 122.8845373,
        "status": false
    },
    {
        "id": 17,
        "project_name": "Sonair",
        "lat": 46.4922368,
        "lng": 15.8777956,
        "status": true
    },
    {
        "id": 18,
        "project_name": "Flowdesk",
        "lat": 35.474465,
        "lng": 128.2579205,
        "status": false
    },
    {
        "id": 19,
        "project_name": "Gembucket",
        "lat": 49.1040007,
        "lng": 29.2092738,
        "status": false
    },
    {
        "id": 20,
        "project_name": "Bamity",
        "lat": 55.5739183,
        "lng": 38.9204498,
        "status": true
    },
    {
        "id": 21,
        "project_name": "Lotstring",
        "lat": 55.9289331,
        "lng": 37.9176675,
        "status": false
    },
    {
        "id": 22,
        "project_name": "Alphazap",
        "lat": 14.7596318,
        "lng": 121.0589081,
        "status": false
    },
    {
        "id": 23,
        "project_name": "Zamit",
        "lat": "36.86278",
        "lng": "66.16656",
        "status": false
    },
    {
        "id": 24,
        "project_name": "Bigtax",
        "lat": 43.4945737,
        "lng": 5.8978018,
        "status": false
    },
    {
        "id": 25,
        "project_name": "Subin",
        "lat": -12.1111107,
        "lng": -77.0333188,
        "status": false
    },
    {
        "id": 26,
        "project_name": "Lotstring",
        "lat": 32.297028,
        "lng": 35.10999,
        "status": false
    },
    {
        "id": 27,
        "project_name": "Stronghold",
        "lat": 35.86166,
        "lng": 104.195397,
        "status": false
    },
    {
        "id": 28,
        "project_name": "Biodex",
        "lat": 52.1080018,
        "lng": 35.7847305,
        "status": false
    },
    {
        "id": 29,
        "project_name": "Fix San",
        "lat": 47.3097201,
        "lng": 5.1041811,
        "status": true
    },
    {
        "id": 30,
        "project_name": "Cardify",
        "lat": 14.5669327,
        "lng": 121.0318426,
        "status": false
    },
    {
        "id": 31,
        "project_name": "Rank",
        "lat": 48.4907371,
        "lng": 22.8097434,
        "status": false
    },
    {
        "id": 32,
        "project_name": "Latlux",
        "lat": 31.148896,
        "lng": 120.722695,
        "status": false
    },
    {
        "id": 33,
        "project_name": "Holdlamis",
        "lat": 8.5263486,
        "lng": 39.2583293,
        "status": true
    },
    {
        "id": 34,
        "project_name": "Pannier",
        "lat": 41.2169163,
        "lng": -8.6759571,
        "status": true
    },
    {
        "id": 35,
        "project_name": "Trippledex",
        "lat": 16.8564272,
        "lng": 120.7963702,
        "status": false
    },
    {
        "id": 36,
        "project_name": "Pannier",
        "lat": 38.0423558,
        "lng": 23.6842658,
        "status": true
    },
    {
        "id": 37,
        "project_name": "Cardguard",
        "lat": 10.5330098,
        "lng": 106.4052541,
        "status": true
    },
    {
        "id": 38,
        "project_name": "Voyatouch",
        "lat": 26.512298,
        "lng": 119.065936,
        "status": true
    },
    {
        "id": 39,
        "project_name": "Otcom",
        "lat": -25.1598678,
        "lng": 27.6889503,
        "status": true
    },
    {
        "id": 40,
        "project_name": "Latlux",
        "lat": 51.7354275,
        "lng": 55.0063279,
        "status": true
    },
    {
        "id": 41,
        "project_name": "Kanlam",
        "lat": 28.663694,
        "lng": 118.534841,
        "status": true
    },
    {
        "id": 42,
        "project_name": "Solarbreeze",
        "lat": 14.8670094,
        "lng": -88.7722444,
        "status": false
    },
    {
        "id": 43,
        "project_name": "Bamity",
        "lat": 38.0818216,
        "lng": 140.0392974,
        "status": true
    },
    {
        "id": 44,
        "project_name": "Subin",
        "lat": "60.0122",
        "lng": "30.20897",
        "status": true
    },
    {
        "id": 45,
        "project_name": "Tempsoft",
        "lat": 54.3093365,
        "lng": 19.0532045,
        "status": true
    },
    {
        "id": 46,
        "project_name": "Sonair",
        "lat": -9.5950796,
        "lng": 119.0168962,
        "status": false
    },
    {
        "id": 47,
        "project_name": "Andalax",
        "lat": -27.1677239,
        "lng": -65.4969437,
        "status": true
    },
    {
        "id": 48,
        "project_name": "Tampflex",
        "lat": "-7.5208",
        "lng": "108.6747",
        "status": true
    },
    {
        "id": 49,
        "project_name": "Fintone",
        "lat": 7.1797684,
        "lng": 2.0714223,
        "status": false
    },
    {
        "id": 50,
        "project_name": "Namfix",
        "lat": -24.6664408,
        "lng": 25.5325797,
        "status": true
    },
    {
        "id": 51,
        "project_name": "Mat Lam Tam",
        "lat": 32.396961,
        "lng": 117.737327,
        "status": true
    },
    {
        "id": 52,
        "project_name": "Veribet",
        "lat": 56.5646213,
        "lng": 53.8155143,
        "status": true
    },
    {
        "id": 53,
        "project_name": "Zaam-Dox",
        "lat": 39.2682845,
        "lng": -9.312494,
        "status": false
    },
    {
        "id": 54,
        "project_name": "Greenlam",
        "lat": 28.572029,
        "lng": 109.482078,
        "status": false
    },
    {
        "id": 55,
        "project_name": "Wrapsafe",
        "lat": "33.77974",
        "lng": "37.68357",
        "status": true
    },
    {
        "id": 56,
        "project_name": "Regrant",
        "lat": 53.6985264,
        "lng": 22.4329027,
        "status": false
    },
    {
        "id": 57,
        "project_name": "Quo Lux",
        "lat": 48.8373554,
        "lng": 2.2682399,
        "status": false
    },
    {
        "id": 58,
        "project_name": "Cardguard",
        "lat": 44.7332232,
        "lng": 18.4100442,
        "status": false
    },
    {
        "id": 59,
        "project_name": "Solarbreeze",
        "lat": -7.0695176,
        "lng": 108.463214,
        "status": false
    },
    {
        "id": 60,
        "project_name": "Greenlam",
        "lat": 49.363914,
        "lng": 14.5786881,
        "status": false
    },
    {
        "id": 61,
        "project_name": "Cardguard",
        "lat": 12.610537,
        "lng": -70.0533844,
        "status": false
    },
    {
        "id": 62,
        "project_name": "Y-Solowarm",
        "lat": -6.972219,
        "lng": 112.4619282,
        "status": true
    },
    {
        "id": 63,
        "project_name": "Stringtough",
        "lat": 14.6155555,
        "lng": 120.9837955,
        "status": false
    },
    {
        "id": 64,
        "project_name": "Quo Lux",
        "lat": 51.8204945,
        "lng": 68.3636926,
        "status": false
    },
    {
        "id": 65,
        "project_name": "Sonsing",
        "lat": 44.9811213,
        "lng": 20.0818204,
        "status": false
    },
    {
        "id": 66,
        "project_name": "Keylex",
        "lat": -6.7047889,
        "lng": 111.6258282,
        "status": false
    },
    {
        "id": 67,
        "project_name": "Lotlux",
        "lat": 42.9107635,
        "lng": 20.8386377,
        "status": true
    },
    {
        "id": 68,
        "project_name": "Temp",
        "lat": -8.4183633,
        "lng": 118.616207,
        "status": true
    },
    {
        "id": 69,
        "project_name": "Temp",
        "lat": 39.9810986,
        "lng": 116.4217216,
        "status": false
    },
    {
        "id": 70,
        "project_name": "Flowdesk",
        "lat": 13.4760985,
        "lng": 144.751572,
        "status": false
    },
    {
        "id": 71,
        "project_name": "Alpha",
        "lat": 27.279995,
        "lng": 100.266091,
        "status": true
    },
    {
        "id": 72,
        "project_name": "Aerified",
        "lat": 27.718295,
        "lng": 119.394148,
        "status": true
    },
    {
        "id": 73,
        "project_name": "Tresom",
        "lat": 52.3376849,
        "lng": 5.6072982,
        "status": true
    },
    {
        "id": 74,
        "project_name": "Trippledex",
        "lat": 45.7544209,
        "lng": 17.049649,
        "status": false
    },
    {
        "id": 75,
        "project_name": "Bitchip",
        "lat": 31.44415,
        "lng": 35.090105,
        "status": true
    },
    {
        "id": 76,
        "project_name": "Duobam",
        "lat": 55.619557,
        "lng": 37.754824,
        "status": false
    },
    {
        "id": 77,
        "project_name": "Bigtax",
        "lat": 61.7575929,
        "lng": 31.0233095,
        "status": false
    },
    {
        "id": 78,
        "project_name": "Cookley",
        "lat": 53.2685396,
        "lng": 37.3569252,
        "status": false
    },
    {
        "id": 79,
        "project_name": "Trippledex",
        "lat": 53.1460852,
        "lng": 14.8924044,
        "status": false
    },
    {
        "id": 80,
        "project_name": "Pannier",
        "lat": -7.382645,
        "lng": 107.7458559,
        "status": true
    },
    {
        "id": 81,
        "project_name": "Tampflex",
        "lat": 49.829369,
        "lng": 19.6728793,
        "status": false
    },
    {
        "id": 82,
        "project_name": "It",
        "lat": 33.892817,
        "lng": 105.373163,
        "status": false
    },
    {
        "id": 83,
        "project_name": "Cardguard",
        "lat": 10.0016057,
        "lng": 123.4091052,
        "status": false
    },
    {
        "id": 84,
        "project_name": "Prodder",
        "lat": 31.871595,
        "lng": 56.0194244,
        "status": false
    },
    {
        "id": 85,
        "project_name": "Duobam",
        "lat": 32.729683,
        "lng": 109.775985,
        "status": true
    },
    {
        "id": 86,
        "project_name": "Cookley",
        "lat": 17.1056791,
        "lng": 120.4557309,
        "status": false
    },
    {
        "id": 87,
        "project_name": "Overhold",
        "lat": 26.905819,
        "lng": 118.146114,
        "status": false
    },
    {
        "id": 88,
        "project_name": "Biodex",
        "lat": -31.399061,
        "lng": -64.2385396,
        "status": true
    },
    {
        "id": 89,
        "project_name": "Prodder",
        "lat": 31.4151366,
        "lng": 51.5683274,
        "status": false
    },
    {
        "id": 90,
        "project_name": "Zathin",
        "lat": -16.7918481,
        "lng": 47.6479775,
        "status": false
    },
    {
        "id": 91,
        "project_name": "Mat Lam Tam",
        "lat": 37.4367461,
        "lng": -7.7770783,
        "status": true
    },
    {
        "id": 92,
        "project_name": "Greenlam",
        "lat": 22.529403,
        "lng": 103.93935,
        "status": false
    },
    {
        "id": 93,
        "project_name": "Otcom",
        "lat": 49.3142554,
        "lng": 15.3946577,
        "status": false
    },
    {
        "id": 94,
        "project_name": "Stringtough",
        "lat": 14.8670094,
        "lng": -88.7722444,
        "status": true
    },
    {
        "id": 95,
        "project_name": "Hatity",
        "lat": 23.902479,
        "lng": 106.618283,
        "status": true
    },
    {
        "id": 96,
        "project_name": "Trippledex",
        "lat": 56.4987582,
        "lng": 38.1830715,
        "status": true
    },
    {
        "id": 97,
        "project_name": "Temp",
        "lat": 9.9772764,
        "lng": 125.2748944,
        "status": false
    },
    {
        "id": 98,
        "project_name": "Flowdesk",
        "lat": 43.4945737,
        "lng": 5.8978018,
        "status": false
    },
    {
        "id": 99,
        "project_name": "Konklab",
        "lat": 52.8303055,
        "lng": 62.5102237,
        "status": true
    },
    {
        "id": 100,
        "project_name": "Job",
        "lat": 38.071659,
        "lng": 114.275059,
        "status": true
    }
]